City,Cloudiness,Country,Date,Humidity,Lat,Lng,Max Temp,Windspeed
buala,33,SB,1603460589,80,-8.14,159.59,80.11,5.73
bougouni,1,ML,1603460589,27,11.42,-7.48,96.22,8.75
ushuaia,40,AR,1603460462,65,-54.8,-68.3,44.6,14.99
adrar,0,DZ,1603460589,9,25.75,-1,100.2,7.02
ribeira grande,40,PT,1603460403,64,38.52,-28.7,69.8,10.29
khatanga,100,RU,1603460530,95,71.97,102.5,6.58,9.31
bethel,90,US,1603460590,100,41.37,-73.41,63.0,3.36
waddan,0,LY,1603460590,21,29.16,16.14,79.99,7.43
chabahar,0,IR,1603460590,54,25.29,60.64,84.2,13.87
rikitea,45,PF,1603460590,78,-23.12,-134.97,73.96,1.45
vaini,75,TO,1603460590,88,-21.2,-175.2,71.6,8.05
saint george,75,BM,1603460590,78,32.38,-64.68,79.0,20.8
hutchinson,90,US,1603460590,74,38.06,-97.93,37.4,18.34
mar del plata,90,AR,1603460544,100,-38,-57.56,57.2,2.24
kismayo,43,SO,1603460591,76,-0.36,42.55,82.35,18.41
marsabit,40,KE,1603460591,34,2.33,37.99,84.06,14
port elizabeth,20,ZA,1603460407,73,-33.92,25.57,73.4,20.8
tiksi,100,RU,1603460413,92,71.69,128.87,18.52,8.86
jejuri,59,IN,1603460591,83,18.28,74.17,76.5,2.42
karuzi,68,BI,1603460592,50,-3.12,30.13,77.74,6.17
nome,1,US,1603460592,34,64.5,-165.41,35.6,9.17
longyearbyen,20,SJ,1603460436,73,78.22,15.64,19.4,2.24
katsuura,75,JP,1603460592,88,35.13,140.3,66.2,6.93
san carlos de bariloche,75,AR,1603460592,53,-41.15,-71.31,51.8,5.93
busselton,0,AU,1603460592,48,-33.65,115.33,55.99,13.31
beringovskiy,13,RU,1603460419,91,63.05,179.32,33.82,18.99
nikolskoye,90,RU,1603460418,87,59.7,30.79,52.0,8.95
yingcheng,28,CN,1603460593,58,30.95,113.55,59.0,6.71
port alfred,24,ZA,1603460593,71,-33.59,26.89,77.05,20.6
dikson,100,RU,1603460593,95,73.51,80.55,23.67,15.12
albany,0,AU,1603460593,81,-35.02,117.89,50.0,4.97
slidell,20,US,1603460593,88,30.28,-89.78,73.99,3.36
broome,75,AU,1603460593,78,-17.97,122.23,80.6,9.17
avarua,100,CK,1603460427,88,-21.21,-159.78,71.6,10.29
jamestown,38,SH,1603460594,89,-15.94,-5.72,60.08,15.14
pevek,0,RU,1603460594,95,69.7,170.31,27.07,11.92
ulagan,82,RU,1603460594,83,50.63,87.96,33.82,1.25
east london,0,ZA,1603460594,78,-33.02,27.91,75.2,6.93
fortuna,1,US,1603460594,100,40.6,-124.16,39.2,9.17
hilo,90,US,1603460594,78,19.73,-155.09,73.4,4.7
ixtapa,75,MX,1603460321,94,20.7,-105.2,80.01,1.9
saint-philippe,75,RE,1603460594,65,-21.36,55.77,77.0,14.99
norman wells,90,CA,1603460445,92,65.28,-126.83,19.4,2.24
sitka,1,US,1603460595,34,57.05,-135.33,35.6,4.7
tula,0,MX,1603460595,73,23,-99.72,68.83,2.55
chokurdakh,57,RU,1603460595,89,70.63,147.92,7.3,5.61
pasighat,100,IN,1603460595,87,28.07,95.33,70.05,1.97
tokur,43,RU,1603460595,94,53.13,132.9,19.04,6.69
atikokan,78,CA,1603460596,94,48.76,-91.62,27.18,5.39
colares,20,PT,1603460596,59,38.8,-9.45,66.2,9.17
raudeberg,100,NO,1603460656,74,61.99,5.14,44.01,11.99
batemans bay,100,AU,1603460656,91,-35.72,150.18,64.0,3
yellowknife,90,CA,1603460656,92,62.46,-114.35,21.2,4.7
new norfolk,100,AU,1603460605,81,-42.78,147.06,54.0,1.5
cherlak,100,RU,1603460656,86,54.16,74.81,33.03,9.35
wang saphung,43,TH,1603460656,80,17.3,101.77,70.86,3.13
litovko,100,RU,1603460657,76,49.24,135.17,38.52,11.79
changji,0,CN,1603460657,40,44.02,87.32,51.8,4.47
punta arenas,75,CL,1603460657,81,-53.15,-70.92,44.6,5.82
klaksvik,75,FO,1603460657,93,62.23,-6.59,46.4,12.75
tuktoyaktuk,90,CA,1603460617,92,69.45,-133.04,26.6,19.46
krasnoselkup,91,RU,1603460657,96,65.7,82.47,13.24,8.25
bluff,100,NZ,1603460657,79,-46.6,168.33,54.0,7
sinnamary,12,GF,1603460658,62,5.38,-52.95,87.08,7.87
vao,5,NC,1603460658,86,-22.67,167.48,73.62,20.04
georgetown,100,SH,1603460658,80,-7.93,-14.42,74.05,15.99
castro,75,CL,1603460658,81,-42.47,-73.77,53.01,11.41
kibondo,25,TZ,1603460658,37,-3.59,30.72,81.61,3.96
mao,17,TD,1603460658,9,14.12,15.31,98.85,17
salinas,90,EC,1603460658,83,-2.22,-80.97,71.6,9.17
ucluelet,90,CA,1603460659,100,48.93,-125.55,43.0,10.29
portland,100,AU,1603460659,85,-38.33,141.6,53.44,13.04
catuday,100,PH,1603460659,83,16.29,119.81,78.82,6.44
moroni,95,KM,1603460659,72,-11.7,43.26,80.26,7.23
qaanaaq,100,GL,1603460617,92,77.48,-69.36,20.52,8.05
todos santos,0,MX,1603460659,72,23.45,-110.22,80.01,7.72
tete,20,MZ,1603460660,26,-16.16,33.59,95.0,11.41
mount gambier,90,AU,1603460556,81,-37.83,140.77,53.6,18.34
port augusta,90,AU,1603460660,82,-32.5,137.77,59.0,25.28
pemba,20,MZ,1603460660,66,-12.97,40.52,84.2,17.22
lerwick,75,GB,1603460660,87,60.15,-1.15,48.2,12.75
hobart,90,AU,1603460564,81,-42.88,147.33,54.0,2.44
narsaq,75,GL,1603460661,63,60.92,-46.05,26.6,3.36
salalah,0,OM,1603460662,27,17.02,54.09,87.8,6.93
half moon bay,75,US,1603460662,87,37.46,-122.43,55.99,3.36
barrow,90,US,1603460662,98,71.29,-156.79,32.0,10.29
souillac,20,MU,1603460409,57,-20.52,57.52,78.8,10.29
zarand,0,IR,1603460663,37,30.81,56.56,56.43,7.05
yurimaguas,75,PE,1603460663,88,-5.9,-76.08,77.0,3.36
touros,75,BR,1603460663,83,-5.2,-35.46,82.4,13.87
cockburn town,32,TC,1603460393,78,21.46,-71.14,82.62,18.07
krasnoshchekovo,100,RU,1603460664,82,51.67,82.73,36.93,8.19
yelkhovka,90,RU,1603460664,93,53.87,50.28,39.2,11.18
chumikan,53,RU,1603460664,86,54.72,135.31,30.13,6.55
mount isa,50,AU,1603460552,83,-20.73,139.5,69.8,3.36
tongren,55,CN,1603460664,71,27.72,109.19,59.61,3.85
santiago del estero,100,AR,1603460461,62,-27.8,-64.26,66.99,3
carnarvon,0,AU,1603460665,88,-24.87,113.63,71.6,13.87
havoysund,75,NO,1603460665,93,71,24.66,35.6,31.09
olinda,75,BR,1603460665,70,-8.01,-34.86,84.2,14.99
barra do bugres,49,BR,1603460726,30,-15.07,-57.18,103.5,1.36
qandala,0,SO,1603460726,46,11.47,49.87,84.52,4.09
kapaa,13,US,1603460727,79,22.08,-159.32,71.01,8.72
lagoa,28,PT,1603460727,80,39.05,-27.98,65.16,15.21
vardo,75,NO,1603460530,100,70.37,31.11,35.6,36.91
bengkulu,100,ID,1603460727,83,-3.8,102.27,79.29,3.91
atbasar,38,KZ,1603460728,83,51.8,68.33,27.5,10.47
sobolevo,67,RU,1603460728,84,54.43,31.9,54.46,12.15
atuona,2,PF,1603460729,80,-9.8,-139.03,77.31,16.82
broken hill,40,AU,1603460729,88,-31.95,141.43,64.4,11.41
colesberg,87,ZA,1603460729,18,-30.72,25.1,87.28,35.34
grand gaube,1,MU,1603460562,56,-20.01,57.66,77.0,7
yerbogachen,31,RU,1603460730,95,61.28,108.01,26.73,6.85
okhotsk,100,RU,1603460616,91,59.38,143.3,37.0,11.74
severo-kurilsk,100,RU,1603460730,81,50.68,156.12,44.26,18.3
cacoal,100,BR,1603460731,64,-11.44,-61.45,84.65,2.46
hazorasp,0,UZ,1603460731,41,41.32,61.07,59.0,4.7
impfondo,100,CG,1603460731,85,1.64,18.07,81.25,4.32
charters towers,100,AU,1603460731,86,-20.1,146.27,70.61,7.4
hermanus,13,ZA,1603460732,68,-34.42,19.23,77.0,5.99
porto novo,40,CV,1603460732,55,17.02,-25.06,87.8,25.28
puerto ayora,100,EC,1603460620,94,-0.74,-90.35,68.0,1.99
kaitangata,99,NZ,1603460732,88,-46.28,169.85,51.57,3.85
safaga,0,EG,1603460733,30,26.73,33.94,93.2,5.82
constitucion,5,MX,1603460733,100,23.99,-104.67,57.99,1.63
nanortalik,100,GL,1603460624,82,60.14,-45.24,34.61,10.4
mogadishu,40,SO,1603460733,70,2.04,45.34,84.2,18.34
takoradi,99,GH,1603460734,77,4.88,-1.76,82.11,9.75
namatanai,0,PG,1603460734,70,-3.67,152.43,80.1,4.27
poso,63,ID,1603460734,84,-1.4,120.75,77.74,4.56
mudhol,93,IN,1603460734,65,16.35,75.28,80.35,1.32
hasaki,75,JP,1603460665,100,35.73,140.83,62.6,4.7
arraial do cabo,20,BR,1603460735,57,-22.97,-42.03,78.8,12.75
mapiripan,80,CO,1603460735,68,2.89,-72.13,83.53,4.54
nabire,86,ID,1603460735,83,-3.37,135.48,77.23,3.56
davlekanovo,75,RU,1603460735,74,54.22,55.03,30.2,8.95
yeppoon,100,AU,1603460735,78,-23.13,150.73,73.4,6.93
leningradskiy,0,RU,1603460736,91,69.38,178.42,24.48,4.05
hanna,8,CA,1603460736,84,51.63,-111.9,15.01,1.99
buribay,64,RU,1603460737,88,51.96,58.16,30.36,5.55
cherskiy,63,RU,1603460737,94,68.75,161.3,18.9,6.31
ayan,98,RU,1603460558,88,56.45,138.17,31.14,13.47
los llanos de aridane,20,ES,1603460737,53,28.66,-17.92,75.2,8.05
ahipara,43,NZ,1603460738,94,-35.17,173.17,58.39,5.46
saskylakh,100,RU,1603460610,97,71.92,114.08,19.94,11.34
butaritari,82,KI,1603460738,71,3.07,172.79,82.29,12.77
bambous virieux,20,MU,1603460739,57,-20.34,57.76,78.8,10.29
kalmunai,13,LK,1603460739,79,7.42,81.82,82.08,4.88
kodiak,90,US,1603460523,93,57.79,-152.41,44.6,27.51
geraldton,0,AU,1603460739,64,-28.77,114.6,68.0,18.34
troitskoye,100,RU,1603460800,83,52.98,84.68,35.56,5.59
iqaluit,75,CA,1603460800,86,63.75,-68.51,26.6,2.24
tasiilaq,75,GL,1603460800,40,65.61,-37.64,37.4,18.34
laguna,96,BR,1603460501,76,-28.48,-48.78,72.68,18.41
port blair,100,IN,1603460801,82,11.67,92.75,81.97,3.36
bredasdorp,50,ZA,1603460801,64,-34.53,20.04,75.2,10.29
bilma,0,NE,1603460801,10,18.69,12.92,96.24,6.35
goure,0,NE,1603460801,11,13.98,10.27,99.0,8.01
cayenne,32,GF,1603460638,66,4.93,-52.33,87.8,3.36
asekeyevo,100,RU,1603460801,92,53.57,52.8,37.58,14.79
shimoda,18,JP,1603460802,96,34.67,138.95,61.0,1.01
aswan,0,EG,1603460802,9,24.09,32.91,99.37,11.79
abomsa,97,ET,1603460802,20,9.98,39.98,84.94,11.16
brainerd,90,US,1603460802,92,46.36,-94.2,30.2,8.05
kruisfontein,0,ZA,1603460595,69,-34,24.73,75.0,10
basco,100,PH,1603460687,84,20.45,121.97,79.12,35.79
barddhaman,97,IN,1603460802,94,23.25,87.85,74.61,5.12
ankazoabo,60,MG,1603460802,51,-22.28,44.52,82.65,14.72
bilibino,8,RU,1603460803,90,68.05,166.44,14.38,1.43
ambilobe,60,MG,1603460803,42,-13.2,49.05,86.63,6.17
santa marinella,100,IT,1603460803,93,42.03,11.85,60.01,1.01
praia da vitoria,40,PT,1603460803,72,38.73,-27.07,68.0,9.75
zhangjiakou,0,CN,1603460803,55,40.81,114.88,41.65,1.99
tilichiki,0,RU,1603460804,96,60.47,166.1,30.06,5.23
catole do rocha,3,BR,1603460804,34,-6.34,-37.75,94.26,11.01
victoria,20,SC,1603460693,70,-4.62,55.45,86.0,5.82
slave lake,90,CA,1603460804,85,55.28,-114.77,15.8,2.24
nizhniy kuranakh,48,RU,1603460804,92,58.84,125.49,18.1,2.71
liangxiang,0,CN,1603460804,39,39.73,116.14,61.0,4.47
hithadhoo,0,MV,1603460804,77,-0.6,73.08,83.25,14.36
stornoway,20,GB,1603460804,71,58.21,-6.39,51.01,13.87
tateyama,14,JP,1603460805,93,34.98,139.87,63.0,1.99
marsa matruh,40,EG,1603460805,53,31.35,27.25,75.2,9.17
shanghai,0,CN,1603460520,58,31.22,121.46,59.0,8.95
talaya,25,RU,1603460805,93,61.38,152.75,22.96,5.03
vitim,100,RU,1603460805,91,59.45,112.56,38.17,6.31
udachnyy,90,RU,1603460806,63,66.42,112.4,26.6,17.9
black river,75,JM,1603460806,83,18.03,-77.85,81.0,2.24
tottori,93,JP,1603460806,80,35.5,134.23,56.93,10.02
hofn,75,IS,1603460806,76,64.25,-15.21,48.2,13.87
cape town,0,ZA,1603460538,60,-33.93,18.42,73.4,9.17
olafsvik,100,IS,1603460615,67,64.89,-23.71,43.36,35.19
mayo,5,CA,1603460807,83,63.59,-135.9,-7.6,1.81
kulu,0,TR,1603460807,30,39.1,33.08,72.14,3.36
sisimiut,77,GL,1603460807,90,66.94,-53.67,25.18,7.23
khorramshahr,0,IR,1603460807,15,30.44,48.17,96.8,6.93
nyuksenitsa,100,RU,1603460807,92,60.41,44.24,38.61,11.81
kirakira,95,SB,1603460807,84,-10.45,161.92,78.57,8.52
langsa,100,ID,1603460807,96,4.47,97.97,75.4,3.44
upernavik,100,GL,1603460808,94,72.79,-56.15,21.65,7.61
barrhead,90,CA,1603460868,78,54.13,-114.4,15.8,2.24
nishihara,75,JP,1603460593,56,26.18,127.76,71.6,11.41
fortuna foothills,1,US,1603460868,64,32.66,-114.41,69.8,4.7
gull lake,90,CA,1603460868,85,50.1,-108.48,14.0,5.82
antofagasta,75,CL,1603460671,87,-23.65,-70.4,57.2,4.7
provideniya,100,RU,1603460868,90,64.38,-173.3,34.29,14.25
mehamn,75,NO,1603460868,93,71.04,27.85,37.4,23.04
magistralnyy,100,RU,1603460868,91,56.17,107.45,38.07,2.51
faanui,100,PF,1603460869,76,-16.48,-151.75,78.21,8.23
hoquiam,90,US,1603460869,81,46.98,-123.89,46.0,8.05
kalundborg,40,DK,1603460869,76,55.68,11.09,57.2,9.17
manta,90,EC,1603460679,88,-0.95,-80.73,71.6,6.93
matara,18,LK,1603460870,84,5.95,80.54,79.7,11.03
paamiut,48,GL,1603460870,86,61.99,-49.67,31.82,25.79
aloleng,100,PH,1603460870,83,16.13,119.78,80.11,5.08
rumphi,59,MW,1603460870,33,-11.02,33.86,83.01,10.78
puerto plata,40,DO,1603460871,70,19.79,-70.69,86.0,4.07
kampot,40,KH,1603460871,88,10.62,104.18,80.6,2.24
kichera,23,RU,1603460871,82,55.94,110.1,34.3,1.72
lompoc,90,US,1603460605,82,34.64,-120.46,62.6,3.56
marsh harbour,0,BS,1603460871,78,26.54,-77.06,79.43,17.36
birao,12,CF,1603460871,30,10.28,22.79,93.96,4.43
seoul,1,KR,1603460627,45,37.57,126.98,48.2,3.36
lebu,100,CL,1603460872,57,-37.62,-73.65,53.74,3.06
tandil,100,AR,1603460872,90,-37.32,-59.13,61.2,4.54
ballina,100,AU,1603460872,78,-28.87,153.57,71.6,12.75
enterprise,1,US,1603460872,18,36.03,-115.24,62.6,5.82
san quintin,100,MX,1603460872,74,30.48,-115.95,64.06,5.14
lianzhou,100,CN,1603460863,64,24.78,112.38,59.18,4.32
yar-sale,57,RU,1603460872,95,66.83,70.83,18.46,10.27
nyaunglebin,25,MM,1603460872,92,17.95,96.73,75.67,3.62
mersin,0,TR,1603460873,20,36.86,34.65,93.2,5.82
najran,0,SA,1603460590,11,17.49,44.13,86.0,6.93
guerrero negro,78,MX,1603460873,79,27.98,-114.06,65.75,7.34
plettenberg bay,41,ZA,1603460873,69,-34.05,23.37,72.73,9.71
nhulunbuy,40,AU,1603460873,78,-12.23,136.77,80.6,6.93
kavieng,7,PG,1603460610,67,-2.57,150.8,82.31,7.7
sarkand,100,KZ,1603460873,81,45.41,79.92,39.74,6.06
vila franca do campo,75,PT,1603460873,77,37.72,-25.43,66.2,10.29
labuhan,58,ID,1603460873,68,-6.88,112.21,83.37,0.94
clovis,20,US,1603460808,47,36.83,-119.7,57.2,4.7
palmer,90,US,1603460873,100,42.16,-72.33,64.0,5.82
burgeo,2,CA,1603460874,61,47.62,-57.62,43.9,4.79
yalta,71,UA,1603460874,72,44.5,34.17,64.26,5.19
moron,0,MN,1603460874,83,47.38,110.32,33.22,6.8
santa maria,75,CV,1603460874,62,16.6,-22.9,84.2,23.04
zhigansk,100,RU,1603460875,97,66.77,123.37,24.94,34.63
burnie,100,AU,1603460875,95,-41.07,145.92,53.4,1.14
iquitos,75,PE,1603460787,83,-3.75,-73.25,78.8,1.12
bulawayo,0,ZW,1603460875,23,-20.15,28.58,84.81,14
tarare,79,FR,1603460936,95,45.9,4.43,62.01,3.42
mahebourg,20,MU,1603460936,57,-20.41,57.7,78.8,10.29
anadyr,90,RU,1603460936,92,64.75,177.48,24.8,6.71
vicosa do ceara,37,BR,1603460936,40,-3.56,-41.09,88.18,10.56
csorna,75,HU,1603460936,93,47.61,17.25,51.8,2.24
college,1,US,1603460637,77,64.86,-147.8,17.01,4.7
maniitsoq,2,GL,1603460698,84,65.42,-52.9,28.65,7.61
tuatapere,49,NZ,1603460937,79,-46.13,167.68,54.0,7
sola,95,VU,1603460937,86,-13.88,167.55,78.12,21.63
nosy varika,5,MG,1603460937,69,-20.58,48.53,76.26,5.66
puerto leguizamo,75,CO,1603460937,64,-0.19,-74.78,83.55,2.42
maningrida,58,AU,1603460937,70,-12.07,134.27,81.55,1.3
richards bay,0,ZA,1603460937,65,-28.78,32.04,77.68,15.7
lichinga,10,MZ,1603460937,24,-13.31,35.24,81.59,5.17
leshukonskoye,100,RU,1603460937,98,64.9,45.76,27.01,13.47
el real de santa maria,91,PA,1603460937,87,8.11,-77.73,79.83,0.65
saint-georges,40,GF,1603460938,66,3.9,-51.8,87.8,4.7
mtwara,75,TZ,1603460938,58,-10.27,40.18,86.0,11.41
inuvik,90,CA,1603460938,92,68.35,-133.72,28.4,3.36
cassilandia,1,BR,1603460938,46,-19.11,-51.73,89.74,3.49
sadon,41,RU,1603460938,16,42.85,44,69.8,4.47
oranjemund,16,NA,1603460938,70,-28.55,16.43,65.16,10.25
saint-augustin,8,CA,1603460938,70,51.23,-58.65,37.87,7.36
tual,85,ID,1603460938,82,-5.67,132.75,82.42,10.87
worcester,0,ZA,1603460678,21,-33.65,19.45,89.49,4.61
dharchula,3,IN,1603460939,49,29.85,80.53,58.89,4.83
sargatskoye,100,RU,1603460939,90,55.61,73.5,30.56,10.49
sambava,7,MG,1603460939,69,-14.27,50.17,77.79,14.18
praia,75,CV,1603460672,62,14.92,-23.51,86.0,20.8
saint-pierre,20,PM,1603460939,61,46.77,-56.17,48.2,12.75
bintulu,40,MY,1603460939,88,3.17,113.03,78.8,3.36
margate,26,ZA,1603460939,75,-30.86,30.37,75.54,25.77
millet,90,CA,1603460859,72,53.1,-113.47,15.8,3.49
torbay,75,CA,1603460940,80,47.67,-52.73,45.0,9.17
touho,0,NC,1603460940,81,-20.78,165.23,75.87,9.37
dunedin,82,NZ,1603460941,86,-45.87,170.5,51.01,1.99
peleduy,100,RU,1603460941,92,59.63,112.74,38.14,6.6
pimenta bueno,100,BR,1603460941,70,-11.67,-61.19,82.22,0.65
iquique,90,CL,1603460941,63,-20.22,-70.14,64.4,3.36
alofi,100,NU,1603460942,94,-19.06,-169.92,75.2,5.82
thompson,90,CA,1603460942,79,55.74,-97.86,19.4,14.99
cotonou,40,BJ,1603460942,74,6.37,2.42,86.0,16.11
oriximina,0,BR,1603460887,40,-1.77,-55.87,95.14,5.3
homer,90,US,1603460942,93,59.64,-151.55,42.01,9.57
olean,75,US,1603460791,100,42.08,-78.43,62.6,6.93
brae,75,GB,1603460942,87,60.4,-1.35,48.2,13.87
chuy,100,UY,1603460652,91,-33.7,-53.46,66.13,5.82
akashi,0,JP,1603460943,62,34.63,134.98,64.4,9.17
aleysk,55,RU,1603460943,81,52.49,82.78,34.45,6.49
bajil,3,YE,1603460943,45,15.06,43.29,91.56,10.33
san policarpo,100,PH,1603461003,82,12.18,125.51,81.81,1.99
erzin,35,RU,1603461003,72,50.26,95.16,36.41,4.5
namibe,75,AO,1603461003,61,-15.2,12.15,82.4,20.8
port macquarie,96,AU,1603461004,87,-31.43,152.92,66.99,15.59
pyu,100,MM,1603461004,93,18.48,96.43,75.38,2.39
igra,100,RU,1603461004,91,57.56,53.05,28.99,10.56
bulungu,93,CD,1603461004,83,-4.55,18.6,81.16,2.89
honningsvag,75,NO,1603461005,80,70.98,25.97,41.0,31.09
chara,79,RU,1603461005,88,56.91,118.26,23.25,0.34
andenes,75,NO,1603461005,78,69.31,16.12,35.6,5.82
awbari,0,LY,1603461006,17,26.59,12.78,88.27,13.4
nantai,0,CN,1603461006,66,40.92,122.8,37.72,2.91
balykshi,75,KZ,1603461006,71,47.07,51.87,50.0,13.42
northam,0,AU,1603461007,55,-31.67,116.67,64.4,11.41
kasongo-lunda,98,CD,1603461007,55,-6.47,16.82,88.5,1.19
kerema,100,PG,1603461007,85,-7.96,145.78,78.64,4.41
sistranda,40,NO,1603461007,75,63.73,8.83,42.8,11.41
san patricio,40,MX,1603461008,94,19.22,-104.7,78.8,5.82
westport,29,NZ,1603461008,77,-41.75,171.6,48.16,4.32
kaka,0,TM,1603461008,41,37.35,59.61,58.89,6.76
tucurui,5,BR,1603461008,45,-3.77,-49.67,93.13,6.08
sahuaripa,0,MX,1603461008,61,29.05,-109.23,69.21,3.56
terrace,75,CA,1603461008,74,54.52,-128.6,30.2,18.34
auki,100,SB,1603461009,83,-8.77,160.7,77.79,4.38
taltal,20,CL,1603461009,57,-25.4,-70.48,64.08,8.5
ust-nera,98,RU,1603461009,92,64.57,143.2,22.39,2.62
verkhoyansk,100,RU,1603461010,87,67.54,133.38,6.8,3.8
khagaria,6,IN,1603461010,71,25.5,86.48,79.88,6.6
ca mau,100,VN,1603461010,92,9.18,105.15,75.67,2.21
isoka,53,ZM,1603461010,26,-10.16,32.63,86.09,8.1
pirmasens,75,DE,1603461010,100,49.2,7.61,61.0,3.36
kashi,75,CN,1603461011,18,39.45,75.98,59.0,4.47
murupara,88,NZ,1603461011,99,-38.47,176.7,55.99,1.03
poum,3,NC,1603461011,78,-20.23,164.02,76.48,6.58
chokwe,0,MZ,1603461011,35,-24.53,32.98,88.99,12.53
sao filipe,1,CV,1603461011,72,14.9,-24.5,81.63,11.9
itarema,54,BR,1603461011,54,-2.92,-39.92,88.52,17.81
usinsk,1,RU,1603461012,95,65.99,57.53,21.56,8.81
okahandja,0,NA,1603461012,9,-21.98,16.92,93.2,6.93
aljezur,2,PT,1603461012,61,37.32,-8.8,66.9,9.95
smithers,90,CA,1603461012,79,54.78,-127.17,23.0,3.36
luderitz,6,NA,1603461012,68,-26.65,15.16,65.21,6.96
khandyga,0,RU,1603461012,93,62.67,135.6,10.54,0.98
wanning,100,CN,1603461012,68,18.8,110.4,71.92,14.76
khuchni,84,RU,1603461013,73,41.95,47.95,52.75,3.29
prince george,90,CA,1603461001,85,53.92,-122.75,19.4,13.87
fuling,95,CN,1603461013,64,29.7,107.39,64.83,2.64
walvis bay,57,NA,1603461013,80,-22.96,14.51,64.99,15.3
kenora,75,CA,1603461013,79,49.82,-94.43,24.8,6.93
tautira,75,PF,1603461013,83,-17.73,-149.15,73.4,3.36
kungurtug,100,RU,1603461073,79,50.6,97.52,34.47,3.09
ponta do sol,40,CV,1603461074,55,17.2,-25.09,87.8,25.28
derzhavinsk,67,KZ,1603461074,83,51.1,66.32,30.34,7.76
lazaro cardenas,12,MX,1603461074,83,17.96,-102.2,78.67,4.9
salta,40,AR,1603461074,64,-24.79,-65.41,73.4,3.36
stromness,75,GB,1603461074,81,58.97,-3.3,48.2,8.05
vostok,100,RU,1603461075,100,46.49,135.88,24.66,15.61
champerico,75,GT,1603461075,94,14.3,-91.92,73.4,6.55
port hardy,90,CA,1603461075,93,50.7,-127.42,41.0,21.92
hambantota,20,LK,1603461075,66,6.12,81.12,86.0,10.29
caravelas,100,BR,1603461075,82,-17.71,-39.25,75.97,3.96
sao joao da barra,40,BR,1603460943,47,-21.64,-41.05,78.8,4.7
talnakh,40,RU,1603461076,84,69.49,88.4,-0.4,13.42
agirish,0,RU,1603461076,94,61.92,63.02,23.47,5.41
henties bay,44,NA,1603461076,80,-22.12,14.28,64.99,10.94
mgandu,33,TZ,1603461077,21,-5.95,34.13,87.51,9.06
kukmor,100,RU,1603461077,96,56.19,50.89,34.32,14.14
salinopolis,85,BR,1603461077,63,-0.61,-47.36,85.03,12.46
dingle,20,IE,1603461078,76,52.14,-10.27,50.0,12.75
kieta,92,PG,1603461078,73,-6.22,155.63,79.09,3.67
garden city,40,US,1603461078,88,42.33,-83.33,68.0,8.05
bastia,75,FR,1603461078,88,42.67,9.33,69.8,11.41
camalu,97,MX,1603461078,69,30.85,-116.07,55.99,1.01
biloela,100,AU,1603461079,84,-24.42,150.5,69.03,12.64
zyryanka,15,RU,1603461079,92,65.75,150.85,10.6,2.8
nichinan,0,JP,1603461079,76,31.6,131.37,53.01,5.01
high level,75,CA,1603461079,92,58.52,-117.14,19.4,2.24
esperance,90,AU,1603461080,93,-33.87,121.9,55.4,10.29
karasjok,90,NO,1603461080,97,69.47,25.51,35.6,31.09
vanavara,95,RU,1603461080,96,60.34,102.28,28.85,7.56
atasu,92,KZ,1603461080,78,48.68,71.64,33.12,9.04
videira,70,BR,1603460865,39,-27.01,-51.15,79.83,5.91
pangody,97,RU,1603461080,98,65.85,74.49,20.71,9.71
caceres,59,BR,1603461080,33,-16.07,-57.68,100.8,3
chemal,100,RU,1603461081,76,51.41,86,37.98,2.84
kavaratti,97,IN,1603461081,73,10.57,72.64,81.55,16.49
concarneau,90,FR,1603461081,77,47.88,-3.92,59.0,18.34
sehithwa,0,BW,1603461081,9,-20.47,22.72,99.05,14.74
nuristan,25,AF,1603461081,91,35.3,70.83,25.05,0.74
tsiroanomandidy,0,MG,1603461082,21,-18.77,46.03,87.64,10.31
liverpool,96,CA,1603461082,84,44.03,-64.72,54.0,1.01
uk,100,RU,1603461082,92,55.08,98.86,37.76,1.14
storebo,75,NO,1603461083,75,60.09,5.23,50.0,14.99
ponta delgada,75,PT,1603461083,77,37.73,-25.67,66.2,10.29
santa vitoria do palmar,100,BR,1603461083,89,-33.52,-53.37,67.19,4.16
road town,40,VG,1603461055,79,18.42,-64.62,86.0,6.93
vrangel,0,RU,1603461084,69,42.73,133.08,39.18,20.29
redmond,100,US,1603460914,94,47.67,-122.12,43.0,1.72
hibbing,90,US,1603461084,86,47.43,-92.94,30.2,10.29
pamanukan,20,ID,1603461084,72,-6.28,107.81,83.19,3.31
kinwat,0,IN,1603461144,65,19.63,78.2,77.05,2.44
idah,78,NG,1603461144,66,7.11,6.73,87.96,1.86
samarkand,5,UZ,1603461145,34,39.65,66.96,53.6,4.7
sept-iles,75,CA,1603461145,80,50.2,-66.38,36.0,5.82
turbat,0,PK,1603461146,16,26,63.04,81.52,22.86
sorong,82,ID,1603461146,77,-0.88,131.25,82.9,3.8
kapuskasing,90,CA,1603461146,86,49.42,-82.43,30.2,6.93
tikapur,0,NP,1603461146,93,28.5,81.13,78.01,1.01
port-gentil,90,GA,1603461146,83,-0.72,8.78,82.4,14.99
gavardo,100,IT,1603461146,93,45.59,10.44,57.2,5.82
las vegas,1,US,1603460950,28,36.17,-115.14,62.6,4.7
cidreira,100,BR,1603461147,81,-30.18,-50.21,70.74,14.74
isangel,100,VU,1603461147,79,-19.55,169.27,74.7,17.81
aklavik,90,CA,1603461147,86,68.22,-135.01,30.2,2.24
breves,0,BR,1603460991,48,-1.68,-50.48,91.63,5.61
jiujiang,0,CN,1603461147,47,29.73,115.98,60.42,8.75
fujin,83,CN,1603461148,92,47.26,132.03,31.96,17.27
iralaya,100,HN,1603461148,87,15,-83.23,79.93,5.39
maryborough,100,AU,1603461148,85,-25.53,152.7,68.29,4.65
idritsa,59,RU,1603461148,77,56.33,28.9,53.49,10.96
itaituba,100,BR,1603461148,43,-4.28,-55.98,94.98,4.07
cabedelo,75,BR,1603461148,88,-6.98,-34.83,80.6,12.75
pechora,14,RU,1603461148,96,65.15,57.22,21.99,6.31
husavik,90,IS,1603461148,70,66.04,-17.34,42.8,9.17
gondanglegi,61,ID,1603461149,81,-7.75,112.01,77.41,9.86
liepaja,98,LV,1603461149,82,56.54,21.04,55.4,19.46
barabai,61,ID,1603461149,77,-2.58,115.38,78.1,2.53
rabo de peixe,75,PT,1603461149,77,37.8,-25.58,66.2,10.29
hualmay,88,PE,1603461149,73,-11.1,-77.61,66.31,8.19
san juan,90,US,1603461149,78,26.19,-98.16,78.8,5.82
itoman,75,JP,1603461149,60,26.12,127.67,71.6,24.16
icatu,40,BR,1603461025,58,-2.78,-44.07,87.8,16.11
iglesias,40,IT,1603461150,73,39.31,8.54,77.0,8.05
xiaoweizhai,64,CN,1603460975,76,26.19,107.51,53.83,3.36
goundam,0,ML,1603461150,7,16.41,-3.67,104.43,15.66
omsukchan,34,RU,1603461150,88,62.53,155.8,18.57,6.29
muzhi,30,RU,1603461150,94,65.37,64.67,19.26,5.95
okha,100,RU,1603461150,95,53.57,142.95,46.42,21.34
caborca,0,MX,1603461150,65,30.58,-111.1,63.0,4.09
corinto,40,NI,1603461151,100,12.48,-87.17,75.2,2.21
rapid valley,1,US,1603461151,85,44.06,-103.15,17.6,6.93
hamburg,31,US,1603461151,56,42.72,-78.83,70.0,15.99
seminole,1,US,1603461151,88,28.71,-81.21,81.0,4.7
nerchinsk,0,RU,1603461151,91,51.98,116.58,31.62,3.42
bethanien,97,NA,1603461151,11,-26.5,17.16,98.02,5.64
kidal,0,ML,1603461152,8,18.44,1.41,100.63,18.72
hovd,100,MN,1603461152,64,48.01,91.64,38.88,1.83
chapada dos guimaraes,0,BR,1603461152,55,-15.46,-55.75,86.0,6.93
chau doc,100,VN,1603461152,85,10.7,105.12,79.14,5.21
shenjiamen,2,CN,1603461152,66,29.96,122.3,60.94,17.11
kushima,0,JP,1603461212,76,31.46,131.23,53.01,5.01
lisakovsk,2,KZ,1603461212,82,52.54,62.49,30.43,3.94
biak,13,ID,1603461213,82,-0.91,122.88,77.95,1.41
jasper,100,CA,1603461213,84,52.88,-118.09,13.66,2.42
nelson bay,100,AU,1603461213,83,-32.72,152.15,70.0,8.05
sakata,87,JP,1603461213,75,38.92,139.85,57.15,22.44
fairbanks,1,US,1603461002,84,64.84,-147.72,17.01,4.54
suntar,96,RU,1603461213,89,62.14,117.63,38.3,9.66
ilulissat,75,GL,1603461213,67,69.22,-51.1,19.4,6.93
la ronge,75,CA,1603461214,79,55.1,-105.28,19.4,6.93
rio gallegos,90,AR,1603461214,81,-51.62,-69.22,48.2,5.82
akyab,98,MM,1603461214,84,20.15,92.9,81.9,20.96
presidente epitacio,65,BR,1603461214,43,-21.76,-52.12,88.3,10.63
gazanjyk,0,TM,1603461214,42,39.24,55.52,58.17,3.78
san vicente,90,PH,1603461214,94,15.3,120.65,78.8,3.36
katherine,40,AU,1603461214,51,-14.47,132.27,86.0,4.7
yashkino,40,RU,1603461214,74,55.87,85.43,33.8,13.42
lobito,40,AO,1603461214,74,-12.35,13.55,82.4,13.87
hot springs,90,US,1603461215,88,34.5,-93.06,71.6,4.7
rimouski,90,CA,1603461215,93,48.45,-68.52,37.4,6.93
asfi,0,MA,1603461215,61,32.3,-9.24,68.88,14.92
jurilovca,0,RO,1603461215,25,44.77,28.87,77.0,13.87
chaman,0,PK,1603461215,39,30.92,66.45,53.31,6.42
denpasar,20,ID,1603461215,83,-8.65,115.22,80.6,6.93
mitsamiouli,94,KM,1603461215,72,-11.38,43.28,80.67,4.32
alasehir,0,TR,1603461216,54,38.35,28.52,71.01,13
roald,0,NO,1603461216,56,62.58,6.13,42.8,4.7
port hedland,0,AU,1603461216,83,-20.32,118.57,75.2,12.75
soanierana ivongo,0,MG,1603461216,75,-16.92,49.58,76.33,5.84
tshikapa,12,CD,1603461216,58,-6.42,20.8,85.19,2.86
tumaco,88,CO,1603461216,82,1.8,-78.82,78.64,12.68
severnyy,0,RU,1603461216,63,50.68,36.55,62.6,4.47
tofte,75,NO,1603461217,81,59.54,10.56,44.01,4.7
odweyne,37,SO,1603461217,22,9.41,45.06,86.0,18.86
havre-saint-pierre,75,CA,1603461217,74,50.23,-63.6,33.8,2.24
ruteng,88,ID,1603461217,100,-8.61,120.47,65.35,2.89
rio grande,100,BR,1603461199,90,-32.03,-52.1,70.0,15.1
bahia de caraquez,90,EC,1603461217,88,-0.6,-80.42,71.6,6.93
ndele,76,CF,1603461217,58,8.41,20.65,86.22,0.09
nadym,85,RU,1603461217,97,65.53,72.52,18.39,11.18
faridpur,75,BD,1603461217,94,23.6,89.83,78.8,4.7
cheyenne,90,US,1603461218,85,41.14,-104.82,14.0,5.82
durazno,75,UY,1603461218,88,-33.41,-56.5,69.8,8.05
poli,100,CM,1603461218,43,8.48,13.25,88.68,4.23
dakar,0,SN,1603460966,59,14.69,-17.44,89.6,13.87
bhadravati,94,IN,1603461218,92,13.87,75.72,71.01,6.04
port shepstone,19,ZA,1603461218,78,-30.74,30.45,74.39,27.16
pisco,75,PE,1603461218,82,-13.7,-76.22,64.4,3.36
batagay-alyta,100,RU,1603461218,90,67.8,130.41,6.75,5.12
chimbote,99,PE,1603460924,78,-9.09,-78.58,65.01,8.57
aykhal,90,RU,1603461279,63,66,111.5,26.6,17.9
kjollefjord,75,NO,1603461279,92,70.95,27.35,37.4,23.04
buritizeiro,87,BR,1603461109,72,-17.35,-44.96,76.35,7.34
miami,40,US,1603461161,69,25.77,-80.19,84.0,12.75
shellbrook,90,CA,1603461280,73,53.22,-106.4,21.2,10.29
emerald,90,AU,1603461280,100,-23.53,148.17,69.8,13.44
novouzensk,95,RU,1603461280,70,50.46,48.14,55.89,11.79
sioux lookout,90,CA,1603461280,92,50.1,-91.92,21.2,3.62
qaqortoq,75,GL,1603461280,63,60.72,-46.03,26.6,3.36
borkenes,75,NO,1603461281,92,68.77,16.17,35.01,8.05
iskilip,0,TR,1603461281,23,40.74,34.47,73.72,2.71
abu dhabi,0,AE,1603461281,45,24.47,54.37,87.8,9.17
presidencia roque saenz pena,99,AR,1603461281,56,-26.79,-60.44,88.11,3.8
de aar,73,ZA,1603461281,21,-30.65,24.01,85.64,16.11
mamlyutka,84,KZ,1603461281,91,54.94,68.54,25.84,10.27
uige,40,AO,1603461281,46,-7.61,15.06,89.6,6.93
pontianak,100,ID,1603461216,82,-0.03,109.33,78.69,1.72
maragogi,0,BR,1603461090,70,-9.01,-35.22,82.11,12.21
alice springs,0,AU,1603461085,33,-23.7,133.88,73.4,17.22
acajutla,75,SV,1603461282,100,13.59,-89.83,73.99,2.42
eyl,61,SO,1603461282,67,7.98,49.82,83.97,11.88
brownfield,71,US,1603461282,72,33.18,-102.27,46.0,25.01
axim,100,GH,1603461282,77,4.87,-2.24,82.0,8.68
green river,1,US,1603461282,92,41.53,-109.47,10.4,4.7
albanel,90,CA,1603461282,100,48.88,-72.45,33.8,6.31
general roca,40,AR,1603461283,68,-39.03,-67.58,66.2,6.93
maniago,75,IT,1603461283,82,46.17,12.71,62.01,3.36
kaeo,47,NZ,1603461283,96,-35.1,173.78,59.0,2.82
tabligbo,20,TG,1603461283,66,6.58,1.5,89.6,13.87
bone,93,ID,1603461283,99,-9.83,124.45,69.96,0.85
ekibastuz,100,KZ,1603461000,77,51.67,75.37,34.63,8.32
muros,97,ES,1603461284,71,42.78,-9.06,63.0,14
borogontsy,81,RU,1603461260,94,62.67,131.17,10.22,5.64
coquimbo,90,CL,1603461284,100,-29.95,-71.34,51.8,5.82
saint-joseph,75,RE,1603461284,65,-21.37,55.62,77.0,14.99
camocim,21,BR,1603461284,48,-2.9,-40.84,90.72,15.48
juneau,1,US,1603461284,39,58.3,-134.42,30.2,10.29
manoel urbano,68,BR,1603461284,65,-8.84,-69.26,83.68,1.77
newport,90,US,1603461075,100,41.49,-71.31,57.99,3.36
magan,0,RU,1603461285,84,62.11,129.53,-2.2,5.55
pauini,98,BR,1603461285,61,-7.71,-66.98,87.03,3.6
pimentel,75,PE,1603461285,82,-6.84,-79.93,62.6,11.41
harper,73,LR,1603461285,83,4.38,-7.72,80.4,8.34
popondetta,100,PG,1603461286,91,-8.75,148.25,74.25,3
garowe,86,SO,1603461286,24,8.41,48.48,91.49,4.18
moerai,100,PF,1603461286,80,-22.43,-151.33,71.8,20.51
forrest city,90,US,1603461286,88,35.01,-90.79,70.0,8.05
pudem,100,RU,1603461286,90,58.3,52.17,28.85,11.48
los andes,17,CL,1603461200,98,-32.83,-70.6,71.01,3.83
shingu,0,JP,1603461287,72,33.73,135.98,54.43,8.61
salto,75,UY,1603461347,88,-31.38,-57.97,72.0,8.05
ancud,75,CL,1603461231,81,-41.87,-73.82,53.01,11.41
birjand,0,IR,1603461347,20,32.87,59.22,62.6,11.41
kawalu,100,ID,1603461225,92,-7.38,108.21,73.17,0.72
pareora,68,NZ,1603461347,97,-44.49,171.21,53.01,3.51
surany,100,SK,1603461347,87,48.09,18.18,57.99,5.86
secu,0,RO,1603461347,37,44.47,23.3,71.6,6.93
ouesso,97,CG,1603461347,53,1.61,16.05,88.68,2.62
lewistown,90,US,1603461347,100,40.6,-77.57,63.0,2.46
pemangkat,100,ID,1603461348,78,1.17,108.97,81.14,2.75
tirumullaivasal,32,IN,1603461348,80,11.23,79.83,81.75,8.61
shunyi,0,CN,1603461348,42,40.12,116.65,61.0,4.47
tongzi,100,CN,1603461348,67,28.78,105.09,66.34,4.38
sinop,0,TR,1603461348,77,41.77,34.87,69.8,9.17
